<ArGpsLocationData><Entry><id>0</id><lat>30.714276729908562</lat><lng>76.83817166008339</lng><altitude>0</altitude><altitudeMode>GroundRelative</altitudeMode><name>Qilla</name><meshId>Qilla</meshId><movementSmoothing>0.05</movementSmoothing><maxNumberOfLocationUpdates>0</maxNumberOfLocationUpdates><useMovingAverage>false</useMovingAverage><hideObjectUtilItIsPlaced>true</hideObjectUtilItIsPlaced></Entry><Entry><id>1</id><lat>30.71391586741281</lat><lng>76.84146738133956</lng><altitude>0</altitude><altitudeMode>GroundRelative</altitudeMode><name>Bus Stand</name><meshId>Bus_stand</meshId><movementSmoothing>0.05</movementSmoothing><maxNumberOfLocationUpdates>0</maxNumberOfLocationUpdates><useMovingAverage>false</useMovingAverage><hideObjectUtilItIsPlaced>true</hideObjectUtilItIsPlaced></Entry><Entry><id>2</id><lat>30.713008738679477</lat><lng>76.84407518059544</lng><altitude>0</altitude><altitudeMode>GroundRelative</altitudeMode><name>Mall</name><meshId>Mall</meshId><movementSmoothing>0.05</movementSmoothing><maxNumberOfLocationUpdates>0</maxNumberOfLocationUpdates><useMovingAverage>false</useMovingAverage><hideObjectUtilItIsPlaced>true</hideObjectUtilItIsPlaced></Entry><Entry><id>3</id><lat>30.7183195755497</lat><lng>76.83718610021867</lng><altitude>0</altitude><altitudeMode>GroundRelative</altitudeMode><name>Park</name><meshId>Park</meshId><movementSmoothing>0.05</movementSmoothing><maxNumberOfLocationUpdates>0</maxNumberOfLocationUpdates><useMovingAverage>false</useMovingAverage><hideObjectUtilItIsPlaced>true</hideObjectUtilItIsPlaced></Entry><Entry><id>4</id><lat>30.723687145087084</lat><lng>76.86044373541847</lng><altitude>0</altitude><altitudeMode>GroundRelative</altitudeMode><name>MansaDevi</name><meshId>MansaDevi</meshId><movementSmoothing>0.05</movementSmoothing><maxNumberOfLocationUpdates>0</maxNumberOfLocationUpdates><useMovingAverage>false</useMovingAverage><hideObjectUtilItIsPlaced>true</hideObjectUtilItIsPlaced></Entry></ArGpsLocationData>